1 1_2DATE 20170308 T_LAT 22.750 T_LNG  91.793 CRACKER {   "plus_code" : {      "compound_code" : "QQ2V+26 Fatikchhari, Bangladesh",      "global_code" : "7MJHQQ2V+26"   },   "results" : [      {         "address_components" : [            {               "long_name" : "Dalu",               "short_name" : "Dalu",               "types" : [ "administrative_area_level_5", "political" ]            },            {               "long_name" : "Chittagong District",               "short_name" : "Chittagong District",               "types" : [ "administrative_area_level_2", "political" ]            },            {               "long_name" : "Chittagong Division",               "short_name" : "Chittagong Division",               "types" : [ "administrative_area_level_1", "political" ]            },            {               "long_name" : "Bangladesh",               "short_name" : "BD",               "types" : [ "country", "political" ]            }         ],         "formatted_address" : "Dalu, Bangladesh",         "geometry" : {            "bounds" : {               "northeast" : {                  "lat" : 22.768165,                  "lng" : 91.8114152               },               "southwest" : {                  "lat" : 22.7313999,                  "lng" : 91.7579076               }            },            "location" : {               "lat" : 22.746973,               "lng" : 91.78796849999999            },            "location_type" : "APPROXIMATE",            "viewport" : {               "northeast" : {                  "lat" : 22.768165,                  "lng" : 91.8114152               },               "southwest" : {                  "lat" : 22.7313999,                  "lng" : 91.7579076               }            }         },         "place_id" : "ChIJ5xYyHAMpUzcRtlOT_OkVxRA",         "types" : [ "administrative_area_level_5", "political" ]      },      {         "address_components" : [            {               "long_name" : "Paindanga",               "short_name" : "Paindanga",               "types" : [ "administrative_area_level_4", "political" ]            },            {               "long_name" : "Chittagong District",               "short_name" : "Chittagong District",               "types" : [ "administrative_area_level_2", "political" ]            },            {               "long_name" : "Chittagong Division",               "short_name" : "Chittagong Division",               "types" : [ "administrative_area_level_1", "political" ]            },            {               "long_name" : "Bangladesh",               "short_name" : "BD",               "types" : [ "country", "political" ]            }         ],         "formatted_address" : "Paindanga, Bangladesh",         "geometry" : {            "bounds" : {               "northeast" : {                  "lat" : 22.794318,                  "lng" : 91.84382629999999               },               "southwest" : {                  "lat" : 22.6994474,                  "lng" : 91.7466108               }            },            "location" : {               "lat" : 22.7468643,               "lng" : 91.79771239999999            },            "location_type" : "APPROXIMATE",            "viewport" : {               "northeast" : {                  "lat" : 22.794318,                  "lng" : 91.84382629999999               },               "southwest" : {                  "lat" : 22.6994474,                  "lng" : 91.7466108               }            }         },         "place_id" : "ChIJVSgKgKkpUzcR0fRElo0gbjk",         "types" : [ "administrative_area_level_4", "political" ]      },      {         "address_components" : [            {               "long_name" : "Fatikchhari Upazila",               "short_name" : "Fatikchhari Upazila",               "types" : [ "administrative_area_level_3", "political" ]            },            {               "long_name" : "Chittagong District",               "short_name" : "Chittagong District",               "types" : [ "administrative_area_level_2", "political" ]            },            {               "long_name" : "Chittagong Division",               "short_name" : "Chittagong Division",               "types" : [ "administrative_area_level_1", "political" ]            },            {               "long_name" : "Bangladesh",               "short_name" : "BD",               "types" : [ "country", "political" ]            }         ],         "formatted_address" : "Fatikchhari Upazila, Bangladesh",         "geometry" : {            "bounds" : {               "northeast" : {                  "lat" : 22.9892228,                  "lng" : 91.9437425               },               "southwest" : {                  "lat" : 22.5579642,                  "lng" : 91.614592               }            },            "location" : {               "lat" : 22.7537259,               "lng" : 91.714958            },            "location_type" : "APPROXIMATE",            "viewport" : {               "northeast" : {                  "lat" : 22.9892228,                  "lng" : 91.9437425               },               "southwest" : {                  "lat" : 22.5579642,                  "lng" : 91.614592               }            }         },         "place_id" : "ChIJoxfDG94xUzcRPOsDr2MDows",         "types" : [ "administrative_area_level_3", "political" ]      },      {         "address_components" : [            {               "long_name" : "Chittagong District",               "short_name" : "Chittagong District",               "types" : [ "administrative_area_level_2", "political" ]            },            {               "long_name" : "Chittagong Division",               "short_name" : "Chittagong Division",               "types" : [ "administrative_area_level_1", "political" ]            },            {               "long_name" : "Bangladesh",               "short_name" : "BD",               "types" : [ "country", "political" ]            }         ],         "formatted_address" : "Chittagong District, Bangladesh",         "geometry" : {            "bounds" : {               "northeast" : {                  "lat" : 22.9892228,                  "lng" : 92.2164375               },               "southwest" : {                  "lat" : 21.8572241,                  "lng" : 91.26162409999999               }            },            "location" : {               "lat" : 22.5150105,               "lng" : 91.75388169999999            },            "location_type" : "APPROXIMATE",            "viewport" : {               "northeast" : {                  "lat" : 22.9892228,                  "lng" : 92.2164375               },               "southwest" : {                  "lat" : 21.8572241,                  "lng" : 91.26162409999999               }            }         },         "place_id" : "ChIJUYDu5_vYrDARdfvTbnbAfbk",         "types" : [ "administrative_area_level_2", "political" ]      },      {         "address_components" : [            {               "long_name" : "Chittagong Division",               "short_name" : "Chittagong Division",               "types" : [ "administrative_area_level_1", "political" ]            },            {               "long_name" : "Bangladesh",               "short_name" : "BD",               "types" : [ "country", "political" ]            }         ],         "formatted_address" : "Chittagong Division, Bangladesh",         "geometry" : {            "bounds" : {               "northeast" : {                  "lat" : 24.2687224,                  "lng" : 92.676081               },               "southwest" : {                  "lat" : 20.575048,                  "lng" : 90.52195209999999               }            },            "location" : {               "lat" : 23.1793157,               "lng" : 91.9881527            },            "location_type" : "APPROXIMATE",            "viewport" : {               "northeast" : {                  "lat" : 24.2687224,                  "lng" : 92.676081               },               "southwest" : {                  "lat" : 20.575048,                  "lng" : 90.52195209999999               }            }         },         "place_id" : "ChIJfUw6kK7YrDAR-UHUMwrCIdY",         "types" : [ "administrative_area_level_1", "political" ]      },      {         "address_components" : [            {               "long_name" : "Bangladesh",               "short_name" : "BD",               "types" : [ "country", "political" ]            }         ],         "formatted_address" : "Bangladesh",         "geometry" : {            "bounds" : {               "northeast" : {                  "lat" : 26.633914,                  "lng" : 92.6801153               },               "southwest" : {                  "lat" : 20.3794,                  "lng" : 88.00861410000002               }            },            "location" : {               "lat" : 23.684994,               "lng" : 90.356331            },            "location_type" : "APPROXIMATE",            "viewport" : {               "northeast" : {                  "lat" : 26.633914,                  "lng" : 92.6801153               },               "southwest" : {                  "lat" : 20.3794,                  "lng" : 88.00861410000002               }            }         },         "place_id" : "ChIJp4vhgO2qrTARa_zhxOAoLQ8",         "types" : [ "country", "political" ]      }   ],   "status" : "OK"} 
2 1_3DATE 20170308 T_LAT 22.757 T_LNG  91.631 CRACKER {   "plus_code" : {      "compound_code" : "QJ4J+R9 Mirsharai, Bangladesh",      "global_code" : "7MJHQJ4J+R9"   },   "results" : [      {         "address_components" : [            {               "long_name" : "Ramgarh Sitakunda R.f.",               "short_name" : "Ramgarh Sitakunda R.f.",               "types" : [ "administrative_area_level_5", "political" ]            },            {               "long_name" : "Chittagong District",               "short_name" : "Chittagong District",               "types" : [ "administrative_area_level_2", "political" ]            },            {               "long_name" : "Chittagong Division",               "short_name" : "Chittagong Division",               "types" : [ "administrative_area_level_1", "political" ]            },            {               "long_name" : "Bangladesh",               "short_name" : "BD",               "types" : [ "country", "political" ]            }         ],         "formatted_address" : "Ramgarh Sitakunda R.f., Bangladesh",         "geometry" : {            "bounds" : {               "northeast" : {                  "lat" : 22.9849274,                  "lng" : 91.7250334               },               "southwest" : {                  "lat" : 22.6874346,                  "lng" : 91.618477               }            },            "location" : {               "lat" : 22.8616571,               "lng" : 91.64692529999999            },            "location_type" : "APPROXIMATE",            "viewport" : {               "northeast" : {                  "lat" : 22.9849274,                  "lng" : 91.7250334               },               "southwest" : {                  "lat" : 22.6874346,                  "lng" : 91.618477               }            }         },         "place_id" : "ChIJw9zB5806UzcRepkvUJB5fjI",         "types" : [ "administrative_area_level_5", "political" ]      },      {         "address_components" : [            {               "long_name" : "Bagan Bazar",               "short_name" : "Bagan Bazar",               "types" : [ "administrative_area_level_4", "political" ]            },            {               "long_name" : "Chittagong District",               "short_name" : "Chittagong District",               "types" : [ "administrative_area_level_2", "political" ]            },            {               "long_name" : "Chittagong Division",               "short_name" : "Chittagong Division",               "types" : [ "administrative_area_level_1", "political" ]            },            {               "long_name" : "Bangladesh",               "short_name" : "BD",               "types" : [ "country", "political" ]            }         ],         "formatted_address" : "Bagan Bazar, Bangladesh",         "geometry" : {            "bounds" : {               "northeast" : {                  "lat" : 22.9892228,                  "lng" : 91.73024239999999               },               "southwest" : {                  "lat" : 22.6852849,                  "lng" : 91.614592               }            },            "location" : {               "lat" : 22.8616571,               "lng" : 91.64692529999999            },            "location_type" : "APPROXIMATE",            "viewport" : {               "northeast" : {                  "lat" : 22.9892228,                  "lng" : 91.73024239999999               },               "southwest" : {                  "lat" : 22.6852849,                  "lng" : 91.614592               }            }         },         "place_id" : "ChIJWwKz9M06UzcR9lPFUMvvsWA",         "types" : [ "administrative_area_level_4", "political" ]      },      {         "address_components" : [            {               "long_name" : "Fatikchhari Upazila",               "short_name" : "Fatikchhari Upazila",               "types" : [ "administrative_area_level_3", "political" ]            },            {               "long_name" : "Chittagong District",               "short_name" : "Chittagong District",               "types" : [ "administrative_area_level_2", "political" ]            },            {               "long_name" : "Chittagong Division",               "short_name" : "Chittagong Division",               "types" : [ "administrative_area_level_1", "political" ]            },            {               "long_name" : "Bangladesh",               "short_name" : "BD",               "types" : [ "country", "political" ]            }         ],         "formatted_address" : "Fatikchhari Upazila, Bangladesh",         "geometry" : {            "bounds" : {               "northeast" : {                  "lat" : 22.9892228,                  "lng" : 91.9437425               },               "southwest" : {                  "lat" : 22.5579642,                  "lng" : 91.614592               }            },            "location" : {               "lat" : 22.7537259,               "lng" : 91.714958            },            "location_type" : "APPROXIMATE",            "viewport" : {               "northeast" : {                  "lat" : 22.9892228,                  "lng" : 91.9437425               },               "southwest" : {                  "lat" : 22.5579642,                  "lng" : 91.614592               }            }         },         "place_id" : "ChIJoxfDG94xUzcRPOsDr2MDows",         "types" : [ "administrative_area_level_3", "political" ]      },      {         "address_components" : [            {               "long_name" : "Chittagong District",               "short_name" : "Chittagong District",               "types" : [ "administrative_area_level_2", "political" ]            },            {               "long_name" : "Chittagong Division",               "short_name" : "Chittagong Division",               "types" : [ "administrative_area_level_1", "political" ]            },            {               "long_name" : "Bangladesh",               "short_name" : "BD",               "types" : [ "country", "political" ]            }         ],         "formatted_address" : "Chittagong District, Bangladesh",         "geometry" : {            "bounds" : {               "northeast" : {                  "lat" : 22.9892228,                  "lng" : 92.2164375               },               "southwest" : {                  "lat" : 21.8572241,                  "lng" : 91.26162409999999               }            },            "location" : {               "lat" : 22.5150105,               "lng" : 91.75388169999999            },            "location_type" : "APPROXIMATE",            "viewport" : {               "northeast" : {                  "lat" : 22.9892228,                  "lng" : 92.2164375               },               "southwest" : {                  "lat" : 21.8572241,                  "lng" : 91.26162409999999               }            }         },         "place_id" : "ChIJUYDu5_vYrDARdfvTbnbAfbk",         "types" : [ "administrative_area_level_2", "political" ]      },      {         "address_components" : [            {               "long_name" : "Chittagong Division",               "short_name" : "Chittagong Division",               "types" : [ "administrative_area_level_1", "political" ]            },            {               "long_name" : "Bangladesh",               "short_name" : "BD",               "types" : [ "country", "political" ]            }         ],         "formatted_address" : "Chittagong Division, Bangladesh",         "geometry" : {            "bounds" : {               "northeast" : {                  "lat" : 24.2687224,                  "lng" : 92.676081               },               "southwest" : {                  "lat" : 20.575048,                  "lng" : 90.52195209999999               }            },            "location" : {               "lat" : 23.1793157,               "lng" : 91.9881527            },            "location_type" : "APPROXIMATE",            "viewport" : {               "northeast" : {                  "lat" : 24.2687224,                  "lng" : 92.676081               },               "southwest" : {                  "lat" : 20.575048,                  "lng" : 90.52195209999999               }            }         },         "place_id" : "ChIJfUw6kK7YrDAR-UHUMwrCIdY",         "types" : [ "administrative_area_level_1", "political" ]      },      {         "address_components" : [            {               "long_name" : "Bangladesh",               "short_name" : "BD",               "types" : [ "country", "political" ]            }         ],         "formatted_address" : "Bangladesh",         "geometry" : {            "bounds" : {               "northeast" : {                  "lat" : 26.633914,                  "lng" : 92.6801153               },               "southwest" : {                  "lat" : 20.3794,                  "lng" : 88.00861410000002               }            },            "location" : {               "lat" : 23.684994,               "lng" : 90.356331            },            "location_type" : "APPROXIMATE",            "viewport" : {               "northeast" : {                  "lat" : 26.633914,                  "lng" : 92.6801153               },               "southwest" : {                  "lat" : 20.3794,                  "lng" : 88.00861410000002               }            }         },         "place_id" : "ChIJp4vhgO2qrTARa_zhxOAoLQ8",         "types" : [ "country", "political" ]      }   ],   "status" : "OK"} 
3 1_4DATE 20170308 T_LAT 22.750 T_LNG  91.797 CRACKER {   "plus_code" : {      "compound_code" : "QQ2W+2R Fatikchhari, Bangladesh",      "global_code" : "7MJHQQ2W+2R"   },   "results" : [      {         "address_components" : [            {               "long_name" : "Dalu",               "short_name" : "Dalu",               "types" : [ "administrative_area_level_5", "political" ]            },            {               "long_name" : "Chittagong District",               "short_name" : "Chittagong District",               "types" : [ "administrative_area_level_2", "political" ]            },            {               "long_name" : "Chittagong Division",               "short_name" : "Chittagong Division",               "types" : [ "administrative_area_level_1", "political" ]            },            {               "long_name" : "Bangladesh",               "short_name" : "BD",               "types" : [ "country", "political" ]            }         ],         "formatted_address" : "Dalu, Bangladesh",         "geometry" : {            "bounds" : {               "northeast" : {                  "lat" : 22.768165,                  "lng" : 91.8114152               },               "southwest" : {                  "lat" : 22.7313999,                  "lng" : 91.7579076               }            },            "location" : {               "lat" : 22.746973,               "lng" : 91.78796849999999            },            "location_type" : "APPROXIMATE",            "viewport" : {               "northeast" : {                  "lat" : 22.768165,                  "lng" : 91.8114152               },               "southwest" : {                  "lat" : 22.7313999,                  "lng" : 91.7579076               }            }         },         "place_id" : "ChIJ5xYyHAMpUzcRtlOT_OkVxRA",         "types" : [ "administrative_area_level_5", "political" ]      },      {         "address_components" : [            {               "long_name" : "Paindanga",               "short_name" : "Paindanga",               "types" : [ "administrative_area_level_4", "political" ]            },            {               "long_name" : "Chittagong District",               "short_name" : "Chittagong District",               "types" : [ "administrative_area_level_2", "political" ]            },            {               "long_name" : "Chittagong Division",               "short_name" : "Chittagong Division",               "types" : [ "administrative_area_level_1", "political" ]            },            {               "long_name" : "Bangladesh",               "short_name" : "BD",               "types" : [ "country", "political" ]            }         ],         "formatted_address" : "Paindanga, Bangladesh",         "geometry" : {            "bounds" : {               "northeast" : {                  "lat" : 22.794318,                  "lng" : 91.84382629999999               },               "southwest" : {                  "lat" : 22.6994474,                  "lng" : 91.7466108               }            },            "location" : {               "lat" : 22.7468643,               "lng" : 91.79771239999999            },            "location_type" : "APPROXIMATE",            "viewport" : {               "northeast" : {                  "lat" : 22.794318,                  "lng" : 91.84382629999999               },               "southwest" : {                  "lat" : 22.6994474,                  "lng" : 91.7466108               }            }         },         "place_id" : "ChIJVSgKgKkpUzcR0fRElo0gbjk",         "types" : [ "administrative_area_level_4", "political" ]      },      {         "address_components" : [            {               "long_name" : "Fatikchhari Upazila",               "short_name" : "Fatikchhari Upazila",               "types" : [ "administrative_area_level_3", "political" ]            },            {               "long_name" : "Chittagong District",               "short_name" : "Chittagong District",               "types" : [ "administrative_area_level_2", "political" ]            },            {               "long_name" : "Chittagong Division",               "short_name" : "Chittagong Division",               "types" : [ "administrative_area_level_1", "political" ]            },            {               "long_name" : "Bangladesh",               "short_name" : "BD",               "types" : [ "country", "political" ]            }         ],         "formatted_address" : "Fatikchhari Upazila, Bangladesh",         "geometry" : {            "bounds" : {               "northeast" : {                  "lat" : 22.9892228,                  "lng" : 91.9437425               },               "southwest" : {                  "lat" : 22.5579642,                  "lng" : 91.614592               }            },            "location" : {               "lat" : 22.7537259,               "lng" : 91.714958            },            "location_type" : "APPROXIMATE",            "viewport" : {               "northeast" : {                  "lat" : 22.9892228,                  "lng" : 91.9437425               },               "southwest" : {                  "lat" : 22.5579642,                  "lng" : 91.614592               }            }         },         "place_id" : "ChIJoxfDG94xUzcRPOsDr2MDows",         "types" : [ "administrative_area_level_3", "political" ]      },      {         "address_components" : [            {               "long_name" : "Chittagong District",               "short_name" : "Chittagong District",               "types" : [ "administrative_area_level_2", "political" ]            },            {               "long_name" : "Chittagong Division",               "short_name" : "Chittagong Division",               "types" : [ "administrative_area_level_1", "political1 1_2DATE 20170308 T_LAT 22.750 T_LNG  91.793 CRACKER {   "plus_code" : {      "compound_code" : "QQ2V+26 Fatikchhari, Bangladesh",      "global_code" : "7MJHQQ2V+26"   },   "results" : [      {         "address_components" : [            {               "long_name" : "Dalu",               "short_name" : "Dalu",               "types" : [ "administrative_area_level_5", "political" ]            },            {               "long_name" : "Chittagong District",               "short_name" : "Chittagong District",               "types" : [ "administrative_area_level_2", "political" ]            },            {               "long_name" : "Chittagong Division",               "short_name" : "Chittagong Division",               "types" : [ "administrative_area_level_1", "political" ]            },            {               "long_name" : "Bangladesh",               "short_name" : "BD",               "types" : [ "country", "political" ]            }         ],         "formatted_address" : "Dalu, Bangladesh",         "geometry" : {            "bounds" : {               "northeast" : {                  "lat" : 22.768165,                  "lng" : 91.8114152               },               "southwest" : {                  "lat" : 22.7313999,                  "lng" : 91.7579076               }            },            "location" : {               "lat" : 22.746973,               "lng" : 91.78796849999999            },            "location_type" : "APPROXIMATE",            "viewport" : {               "northeast" : {                  "lat" : 22.768165,                  "lng" : 91.8114152               },               "southwest" : {                  "lat" : 22.7313999,                  "lng" : 91.7579076               }            }         },         "place_id" : "ChIJ5xYyHAMpUzcRtlOT_OkVxRA",         "types" : [ "administrative_area_level_5", "political" ]      },      {         "address_components" : [            {               "long_name" : "Paindanga",               "short_name" : "Paindanga",               "types" : [ "administrative_area_level_4", "political" ]            },            {               "long_name" : "Chittagong District",               "short_name" : "Chittagong District",               "types" : [ "administrative_area_level_2", "political" ]            },            {               "long_name" : "Chittagong Division",               "short_name" : "Chittagong Division",               "types" : [ "administrative_area_level_1", "political" ]            },            {               "long_name" : "Bangladesh",               "short_name" : "BD",               "types" : [ "country", "political" ]            }         ],         "formatted_address" : "Paindanga, Bangladesh",         "geometry" : {            "bounds" : {               "northeast" : {                  "lat" : 22.794318,                  "lng" : 91.84382629999999               },               "southwest" : {                  "lat" : 22.6994474,                  "lng" : 91.7466108               }            },            "location" : {               "lat" : 22.7468643,               "lng" : 91.79771239999999            },            "location_type" : "APPROXIMATE",            "viewport" : {               "northeast" : {                  "lat" : 22.794318,                  "lng" : 91.84382629999999               },               "southwest" : {                  "lat" : 22.6994474,                  "lng" : 91.7466108               }            }         },         "place_id" : "ChIJVSgKgKkpUzcR0fRElo0gbjk",         "types" : [ "administrative_area_level_4", "political" ]      },      {         "address_components" : [            {               "long_name" : "Fatikchhari Upazila",               "short_name" : "Fatikchhari Upazila",               "types" : [ "administrative_area_level_3", "political" ]            },            {               "long_name" : "Chittagong District",               "short_name" : "Chittagong District",               "types" : [ "administrative_area_level_2", "political" ]            },            {               "long_name" : "Chittagong Division",               "short_name" : "Chittagong Division",               "types" : [ "administrative_area_level_1", "political" ]            },            {               "long_name" : "Bangladesh",               "short_name" : "BD",               "types" : [ "country", "political" ]            }         ],         "formatted_address" : "Fatikchhari Upazila, Bangladesh",         "geometry" : {            "bounds" : {               "northeast" : {                  "lat" : 22.9892228,                  "lng" : 91.9437425               },               "southwest" : {                  "lat" : 22.5579642,                  "lng" : 91.614592               }            },            "location" : {               "lat" : 22.7537259,               "lng" : 91.714958            },            "location_type" : "APPROXIMATE",            "viewport" : {               "northeast" : {                  "lat" : 22.9892228,                  "lng" : 91.9437425               },               "southwest" : {                  "lat" : 22.5579642,                  "lng" : 91.614592               }            }         },         "place_id" : "ChIJoxfDG94xUzcRPOsDr2MDows",         "types" : [ "administrative_area_level_3", "political" ]      },      {         "address_components" : [            {               "long_name" : "Chittagong District",               "short_name" : "Chittagong District",               "types" : [ "administrative_area_level_2", "political" ]            },            {               "long_name" : "Chittagong Division",               "short_name" : "Chittagong Division",               "types" : [ "administrative_area_level_1", "political" ]            },            {               "long_name" : "Bangladesh",               "short_name" : "BD",               "types" : [ "country", "political" ]            }         ],         "formatted_address" : "Chittagong District, Bangladesh",         "geometry" : {            "bounds" : {               "northeast" : {                  "lat" : 22.9892228,                  "lng" : 92.2164375               },               "southwest" : {                  "lat" : 21.8572241,                  "lng" : 91.26162409999999               }            },            "location" : {               "lat" : 22.5150105,               "lng" : 91.75388169999999            },            "location_type" : "APPROXIMATE",            "viewport" : {               "northeast" : {                  "lat" : 22.9892228,                  "lng" : 92.2164375               },               "southwest" : {                  "lat" : 21.8572241,                  "lng" : 91.26162409999999               }            }         },         "place_id" : "ChIJUYDu5_vYrDARdfvTbnbAfbk",         "types" : [ "administrative_area_level_2", "political" ]      },      {         "address_components" : [            {               "long_name" : "Chittagong Division",               "short_name" : "Chittagong Division",               "types" : [ "administrative_area_level_1", "political" ]            },            {               "long_name" : "Bangladesh",               "short_name" : "BD",               "types" : [ "country", "political" ]            }         ],         "formatted_address" : "Chittagong Division, Bangladesh",         "geometry" : {            "bounds" : {               "northeast" : {                  "lat" : 24.2687224,                  "lng" : 92.676081               },               "southwest" : {                  "lat" : 20.575048,                  "lng" : 90.52195209999999               }            },            "location" : {               "lat" : 23.1793157,               "lng" : 91.9881527            },            "location_type" : "APPROXIMATE",            "viewport" : {               "northeast" : {                  "lat" : 24.2687224,                  "lng" : 92.676081               },               "southwest" : {                  "lat" : 20.575048,                  "lng" : 90.52195209999999               }            }         },         "place_id" : "ChIJfUw6kK7YrDAR-UHUMwrCIdY",         "types" : [ "administrative_area_level_1", "political" ]      },      {         "address_components" : [            {               "long_name" : "Bangladesh",               "short_name" : "BD",               "types" : [ "country", "political" ]            }         ],         "formatted_address" : "Bangladesh",         "geometry" : {            "bounds" : {               "northeast" : {                  "lat" : 26.633914,                  "lng" : 92.6801153               },               "southwest" : {                  "lat" : 20.3794,                  "lng" : 88.00861410000002               }            },            "location" : {               "lat" : 23.684994,               "lng" : 90.356331            },            "location_type" : "APPROXIMATE",            "viewport" : {               "northeast" : {                  "lat" : 26.633914,                  "lng" : 92.6801153               },               "southwest" : {                  "lat" : 20.3794,                  "lng" : 88.00861410000002               }            }         },         "place_id" : "ChIJp4vhgO2qrTARa_zhxOAoLQ8",         "types" : [ "country", "political" ]      }   ],   "status" : "OK"} 
2 1_3DATE 20170308 T_LAT 22.757 T_LNG  91.631 CRACKER {   "plus_code" : {      "compound_code" : "QJ4J+R9 Mirsharai, Bangladesh",      "global_code" : "7MJHQJ4J+R9"   },   "results" : [      {         "address_components" : [            {               "long_name" : "Ramgarh Sitakunda R.f.",               "short_name" : "Ramgarh Sitakunda R.f.",               "types" : [ "administrative_area_level_5", "political" ]            },            {               "long_name" : "Chittagong District",               "short_name" : "Chittagong District",               "types" : [ "administrative_area_level_2", "political" ]            },            {               "long_name" : "Chittagong Division",               "short_name" : "Chittagong Division",               "types" : [ "administrative_area_level_1", "political" ]            },            {               "long_name" : "Bangladesh",               "short_name" : "BD",               "types" : [ "country", "political" ]            }         ],         "formatted_address" : "Ramgarh Sitakunda R.f., Bangladesh",         "geometry" : {            "bounds" : {               "northeast" : {                  "lat" : 22.9849274,                  "lng" : 91.7250334               },               "southwest" : {                  "lat" : 22.6874346,                  "lng" : 91.618477               }            },            "location" : {               "lat" : 22.8616571,               "lng" : 91.64692529999999            },            "location_type" : "APPROXIMATE",            "viewport" : {               "northeast" : {                  "lat" : 22.9849274,                  "lng" : 91.7250334               },               "southwest" : {                  "lat" : 22.6874346,                  "lng" : 91.618477               }            }         },         "place_id" : "ChIJw9zB5806UzcRepkvUJB5fjI",         "types" : [ "administrative_area_level_5", "political" ]      },      {         "address_components" : [            {               "long_name" : "Bagan Bazar",               "short_name" : "Bagan Bazar",               "types" : [ "administrative_area_level_4", "political" ]            },            {               "long_name" : "Chittagong District",               "short_name" : "Chittagong District",               "types" : [ "administrative_area_level_2", "political" ]            },            {               "long_name" : "Chittagong Division",               "short_name" : "Chittagong Division",               "types" : [ "administrative_area_level_1", "political" ]            },            {               "long_name" : "Bangladesh",               "short_name" : "BD",               "types" : [ "country", "political" ]            }         ],         "formatted_address" : "Bagan Bazar, Bangladesh",         "geometry" : {            "bounds" : {               "northeast" : {                  "lat" : 22.9892228,                  "lng" : 91.73024239999999               },               "southwest" : {                  "lat" : 22.6852849,                  "lng" : 91.614592               }            },            "location" : {               "lat" : 22.8616571,               "lng" : 91.64692529999999            },            "location_type" : "APPROXIMATE",            "viewport" : {               "northeast" : {                  "lat" : 22.9892228,                  "lng" : 91.73024239999999               },               "southwest" : {                  "lat" : 22.6852849,                  "lng" : 91.614592               }            }         },         "place_id" : "ChIJWwKz9M06UzcR9lPFUMvvsWA",         "types" : [ "administrative_area_level_4", "political" ]      },      {         "address_components" : [            {               "long_name" : "Fatikchhari Upazila",               "short_name" : "Fatikchhari Upazila",               "types" : [ "administrative_area_level_3", "political" ]            },            {               "long_name" : "Chittagong District",               "short_name" : "Chittagong District",               "types" : [ "administrative_area_level_2", "political" ]            },            {               "long_name" : "Chittagong Division",               "short_name" : "Chittagong Division",               "types" : [ "administrative_area_level_1", "political" ]            },            {               "long_name" : "Bangladesh",               "short_name" : "BD",               "types" : [ "country", "political" ]            }         ],         "formatted_address" : "Fatikchhari Upazila, Bangladesh",         "geometry" : {            "bounds" : {               "northeast" : {                  "lat" : 22.9892228,                  "lng" : 91.9437425               },               "southwest" : {                  "lat" : 22.5579642,                  "lng" : 91.614592               }            },            "location" : {               "lat" : 22.7537259,               "lng" : 91.714958            },            "location_type" : "APPROXIMATE",            "viewport" : {               "northeast" : {                  "lat" : 22.9892228,                  "lng" : 91.9437425               },               "southwest" : {                  "lat" : 22.5579642,                  "lng" : 91.614592               }            }         },         "place_id" : "ChIJoxfDG94xUzcRPOsDr2MDows",         "types" : [ "administrative_area_level_3", "political" ]      },      {         "address_components" : [            {               "long_name" : "Chittagong District",               "short_name" : "Chittagong District",               "types" : [ "administrative_area_level_2", "political" ]            },            {               "long_name" : "Chittagong Division",               "short_name" : "Chittagong Division",               "types" : [ "administrative_area_level_1", "political" ]            },            {               "long_name" : "Bangladesh",               "short_name" : "BD",               "types" : [ "country", "political" ]            }         ],         "formatted_address" : "Chittagong District, Bangladesh",         "geometry" : {            "bounds" : {               "northeast" : {                  "lat" : 22.9892228,                  "lng" : 92.2164375               },               "southwest" : {                  "lat" : 21.8572241,                  "lng" : 91.26162409999999               }            },            "location" : {               "lat" : 22.5150105,               "lng" : 91.75388169999999            },            "location_type" : "APPROXIMATE",            "viewport" : {               "northeast" : {                  "lat" : 22.9892228,                  "lng" : 92.2164375               },               "southwest" : {                  "lat" : 21.8572241,                  "lng" : 91.26162409999999               }            }         },         "place_id" : "ChIJUYDu5_vYrDARdfvTbnbAfbk",         "types" : [ "administrative_area_level_2", "political" ]      },      {         "address_components" : [            {               "long_name" : "Chittagong Division",               "short_name" : "Chittagong Division",               "types" : [ "administrative_area_level_1", "political" ]            },            {               "long_name" : "Bangladesh",               "short_name" : "BD",               "types" : [ "country", "political" ]            }         ],         "formatted_address" : "Chittagong Division, Bangladesh",         "geometry" : {            "bounds" : {               "northeast" : {                  "lat" : 24.2687224,                  "lng" : 92.676081               },               "southwest" : {                  "lat" : 20.575048,                  "lng" : 90.52195209999999               }            },            "location" : {               "lat" : 23.1793157,               "lng" : 91.9881527            },            "location_type" : "APPROXIMATE",            "viewport" : {               "northeast" : {                  "lat" : 24.2687224,                  "lng" : 92.676081               },               "southwest" : {                  "lat" : 20.575048,                  "lng" : 90.52195209999999               }            }         },         "place_id" : "ChIJfUw6kK7YrDAR-UHUMwrCIdY",         "types" : [ "administrative_area_level_1", "political" ]      },      {         "address_components" : [            {               "long_name" : "Bangladesh",               "short_name" : "BD",               "types" : [ "country", "political" ]            }         ],         "formatted_address" : "Bangladesh",         "geometry" : {            "bounds" : {               "northeast" : {                  "lat" : 26.633914,                  "lng" : 92.6801153               },               "southwest" : {                  "lat" : 20.3794,                  "lng" : 88.00861410000002               }            },            "location" : {               "lat" : 23.684994,               "lng" : 90.356331            },            "location_type" : "APPROXIMATE",            "viewport" : {               "northeast" : {                  "lat" : 26.633914,                  "lng" : 92.6801153               },               "southwest" : {                  "lat" : 20.3794,                  "lng" : 88.00861410000002               }            }         },         "place_id" : "ChIJp4vhgO2qrTARa_zhxOAoLQ8",         "types" : [ "country", "political" ]      }   ],   "status" : "OK"} 
3 1_4DATE 20170308 T_LAT 22.750 T_LNG  91.797 CRACKER {   "plus_code" : {      "compound_code" : "QQ2W+2R Fatikchhari, Bangladesh",      "global_code" : "7MJHQQ2W+2R"   },   "results" : [      {         "address_components" : [            {               "long_name" : "Dalu",               "short_name" : "Dalu",               "types" : [ "administrative_area_level_5", "political" ]            },            {               "long_name" : "Chittagong District",               "short_name" : "Chittagong District",               "types" : [ "administrative_area_level_2", "political" ]            },            {               "long_name" : "Chittagong Division",               "short_name" : "Chittagong Division",               "types" : [ "administrative_area_level_1", "political" ]            },            {               "long_name" : "Bangladesh",               "short_name" : "BD",               "types" : [ "country", "political" ]            }         ],         "formatted_address" : "Dalu, Bangladesh",         "geometry" : {            "bounds" : {               "northeast" : {                  "lat" : 22.768165,                  "lng" : 91.8114152               },               "southwest" : {                  "lat" : 22.7313999,                  "lng" : 91.7579076               }            },            "location" : {               "lat" : 22.746973,               "lng" : 91.78796849999999            },            "location_type" : "APPROXIMATE",            "viewport" : {               "northeast" : {                  "lat" : 22.768165,                  "lng" : 91.8114152               },               "southwest" : {                  "lat" : 22.7313999,                  "lng" : 91.7579076               }            }         },         "place_id" : "ChIJ5xYyHAMpUzcRtlOT_OkVxRA",         "types" : [ "administrative_area_level_5", "political" ]      },      {         "address_components" : [            {               "long_name" : "Paindanga",               "short_name" : "Paindanga",               "types" : [ "administrative_area_level_4", "political" ]            },            {               "long_name" : "Chittagong District",               "short_name" : "Chittagong District",               "types" : [ "administrative_area_level_2", "political" ]            },            {               "long_name" : "Chittagong Division",               "short_name" : "Chittagong Division",               "types" : [ "administrative_area_level_1", "political" ]            },            {               "long_name" : "Bangladesh",               "short_name" : "BD",               "types" : [ "country", "political" ]            }         ],         "formatted_address" : "Paindanga, Bangladesh",         "geometry" : {            "bounds" : {               "northeast" : {                  "lat" : 22.794318,                  "lng" : 91.84382629999999               },               "southwest" : {                  "lat" : 22.6994474,                  "lng" : 91.7466108               }            },            "location" : {               "lat" : 22.7468643,               "lng" : 91.79771239999999            },            "location_type" : "APPROXIMATE",            "viewport" : {               "northeast" : {                  "lat" : 22.794318,                  "lng" : 91.84382629999999               },               "southwest" : {                  "lat" : 22.6994474,                  "lng" : 91.7466108               }            }         },         "place_id" : "ChIJVSgKgKkpUzcR0fRElo0gbjk",         "types" : [ "administrative_area_level_4", "political" ]      },      {         "address_components" : [            {               "long_name" : "Fatikchhari Upazila",               "short_name" : "Fatikchhari Upazila",               "types" : [ "administrative_area_level_3", "political" ]            },            {               "long_name" : "Chittagong District",               "short_name" : "Chittagong District",               "types" : [ "administrative_area_level_2", "political" ]            },            {               "long_name" : "Chittagong Division",               "short_name" : "Chittagong Division",               "types" : [ "administrative_area_level_1", "political" ]            },            {               "long_name" : "Bangladesh",               "short_name" : "BD",               "types" : [ "country", "political" ]            }         ],         "formatted_address" : "Fatikchhari Upazila, Bangladesh",         "geometry" : {            "bounds" : {               "northeast" : {                  "lat" : 22.9892228,                  "lng" : 91.9437425               },               "southwest" : {                  "lat" : 22.5579642,                  "lng" : 91.614592               }            },            "location" : {               "lat" : 22.7537259,               "lng" : 91.714958            },            "location_type" : "APPROXIMATE",            "viewport" : {               "northeast" : {                  "lat" : 22.9892228,                  "lng" : 91.9437425               },               "southwest" : {                  "lat" : 22.5579642,                  "lng" : 91.614592               }            }         },         "place_id" : "ChIJoxfDG94xUzcRPOsDr2MDows",         "types" : [ "administrative_area_level_3", "political" ]      },      {         "address_components" : [            {               "long_name" : "Chittagong District",               "short_name" : "Chittagong District",               "types" : [ "administrative_area_level_2", "political" ]            },            {               "long_name" : "Chittagong Division",               "short_name" : "Chittagong Division",               "types" : [ "administrative_area_level_1", "political1 1_2DATE 20170308 T_LAT 22.750 T_LNG  91.793 CRACKER {   "plus_code" : {      "compound_code" : "QQ2V+26 Fatikchhari, Bangladesh",      "global_code" : "7MJHQQ2V+26"   },   "results" : [      {         "address_components" : [            {               "long_name" : "Dalu",               "short_name" : "Dalu",               "types" : [ "administrative_area_level_5", "political" ]            },            {               "long_name" : "Chittagong District",               "short_name" : "Chittagong District",               "types" : [ "administrative_area_level_2", "political" ]            },            {               "long_name" : "Chittagong Division",               "short_name" : "Chittagong Division",               "types" : [ "administrative_area_level_1", "political" ]            },            {               "long_name" : "Bangladesh",               "short_name" : "BD",               "types" : [ "country", "political" ]            }         ],         "formatted_address" : "Dalu, Bangladesh",         "geometry" : {            "bounds" : {               "northeast" : {                  "lat" : 22.768165,                  "lng" : 91.8114152               },               "southwest" : {                  "lat" : 22.7313999,                  "lng" : 91.7579076               }            },            "location" : {               "lat" : 22.746973,               "lng" : 91.78796849999999            },            "location_type" : "APPROXIMATE",            "viewport" : {               "northeast" : {                  "lat" : 22.768165,                  "lng" : 91.8114152               },               "southwest" : {                  "lat" : 22.7313999,                  "lng" : 91.7579076               }            }         },         "place_id" : "ChIJ5xYyHAMpUzcRtlOT_OkVxRA",         "types" : [ "administrative_area_level_5", "political" ]      },      {         "address_components" : [            {               "long_name" : "Paindanga",               "short_name" : "Paindanga",               "types" : [ "administrative_area_level_4", "political" ]            },            {               "long_name" : "Chittagong District",               "short_name" : "Chittagong District",               "types" : [ "administrative_area_level_2", "political" ]            },            {               "long_name" : "Chittagong Division",               "short_name" : "Chittagong Division",               "types" : [ "administrative_area_level_1", "political" ]            },            {               "long_name" : "Bangladesh",               "short_name" : "BD",               "types" : [ "country", "political" ]            }         ],         "formatted_address" : "Paindanga, Bangladesh",         "geometry" : {            "bounds" : {               "northeast" : {                  "lat" : 22.794318,                  "lng" : 91.84382629999999               },               "southwest" : {                  "lat" : 22.6994474,                  "lng" : 91.7466108               }            },            "location" : {               "lat" : 22.7468643,               "lng" : 91.79771239999999            },            "location_type" : "APPROXIMATE",            "viewport" : {               "northeast" : {                  "lat" : 22.794318,                  "lng" : 91.84382629999999               },               "southwest" : {                  "lat" : 22.6994474,                  "lng" : 91.7466108               }            }         },         "place_id" : "ChIJVSgKgKkpUzcR0fRElo0gbjk",         "types" : [ "administrative_area_level_4", "political" ]      },      {         "address_components" : [            {               "long_name" : "Fatikchhari Upazila",               "short_name" : "Fatikchhari Upazila",               "types" : [ "administrative_area_level_3", "political" ]            },            {               "long_name" : "Chittagong District",               "short_name" : "Chittagong District",               "types" : [ "administrative_area_level_2", "political" ]            },            {               "long_name" : "Chittagong Division",               "short_name" : "Chittagong Division",               "types" : [ "administrative_area_level_1", "political" ]            },            {               "long_name" : "Bangladesh",               "short_name" : "BD",               "types" : [ "country", "political" ]            }         ],         "formatted_address" : "Fatikchhari Upazila, Bangladesh",         "geometry" : {            "bounds" : {               "northeast" : {                  "lat" : 22.9892228,                  "lng" : 91.9437425               },               "southwest" : {                  "lat" : 22.5579642,                  "lng" : 91.614592               }            },            "location" : {               "lat" : 22.7537259,               "lng" : 91.714958            },            "location_type" : "APPROXIMATE",            "viewport" : {               "northeast" : {                  "lat" : 22.9892228,                  "lng" : 91.9437425               },               "southwest" : {                  "lat" : 22.5579642,                  "lng" : 91.614592               }            }         },         "place_id" : "ChIJoxfDG94xUzcRPOsDr2MDows",         "types" : [ "administrative_area_level_3", "political" ]      },      {         "address_components" : [            {               "long_name" : "Chittagong District",               "short_name" : "Chittagong District",               "types" : [ "administrative_area_level_2", "political" ]            },            {               "long_name" : "Chittagong Division",               "short_name" : "Chittagong Division",               "types" : [ "administrative_area_level_1", "political" ]            },            {               "long_name" : "Bangladesh",               "short_name" : "BD",               "types" : [ "country", "political" ]            }         ],         "formatted_address" : "Chittagong District, Bangladesh",         "geometry" : {            "bounds" : {               "northeast" : {                  "lat" : 22.9892228,                  "lng" : 92.2164375               },               "southwest" : {                  "lat" : 21.8572241,                  "lng" : 91.26162409999999               }            },            "location" : {               "lat" : 22.5150105,               "lng" : 91.75388169999999            },            "location_type" : "APPROXIMATE",            "viewport" : {               "northeast" : {                  "lat" : 22.9892228,                  "lng" : 92.2164375               },               "southwest" : {                  "lat" : 21.8572241,                  "lng" : 91.26162409999999               }            }         },         "place_id" : "ChIJUYDu5_vYrDARdfvTbnbAfbk",         "types" : [ "administrative_area_level_2", "political" ]      },      {         "address_components" : [            {               "long_name" : "Chittagong Division",               "short_name" : "Chittagong Division",               "types" : [ "administrative_area_level_1", "political" ]            },            {               "long_name" : "Bangladesh",               "short_name" : "BD",               "types" : [ "country", "political" ]            }         ],         "formatted_address" : "Chittagong Division, Bangladesh",         "geometry" : {            "bounds" : {               "northeast" : {                  "lat" : 24.2687224,                  "lng" : 92.676081               },               "southwest" : {                  "lat" : 20.575048,                  "lng" : 90.52195209999999               }            },            "location" : {               "lat" : 23.1793157,               "lng" : 91.9881527            },            "location_type" : "APPROXIMATE",            "viewport" : {               "northeast" : {                  "lat" : 24.2687224,                  "lng" : 92.676081               },               "southwest" : {                  "lat" : 20.575048,                  "lng" : 90.52195209999999               }            }         },         "place_id" : "ChIJfUw6kK7YrDAR-UHUMwrCIdY",         "types" : [ "administrative_area_level_1", "political" ]      },      {         "address_components" : [            {               "long_name" : "Bangladesh",               "short_name" : "BD",               "types" : [ "country", "political" ]            }         ],         "formatted_address" : "Bangladesh",         "geometry" : {            "bounds" : {               "northeast" : {                  "lat" : 26.633914,                  "lng" : 92.6801153               },               "southwest" : {                  "lat" : 20.3794,                  "lng" : 88.00861410000002               }            },            "location" : {               "lat" : 23.684994,               "lng" : 90.356331            },            "location_type" : "APPROXIMATE",            "viewport" : {               "northeast" : {                  "lat" : 26.633914,                  "lng" : 92.6801153               },               "southwest" : {                  "lat" : 20.3794,                  "lng" : 88.00861410000002               }            }         },         "place_id" : "ChIJp4vhgO2qrTARa_zhxOAoLQ8",         "types" : [ "country", "political" ]      }   ],   "status" : "OK"} 
2 1_3DATE 20170308 T_LAT 22.757 T_LNG  91.631 CRACKER {   "plus_code" : {      "compound_code" : "QJ4J+R9 Mirsharai, Bangladesh",      "global_code" : "7MJHQJ4J+R9"   },   "results" : [      {         "address_components" : [            {               "long_name" : "Ramgarh Sitakunda R.f.",               "short_name" : "Ramgarh Sitakunda R.f.",               "types" : [ "administrative_area_level_5", "political" ]            },            {               "long_name" : "Chittagong District",               "short_name" : "Chittagong District",               "types" : [ "administrative_area_level_2", "political" ]            },            {               "long_name" : "Chittagong Division",               "short_name" : "Chittagong Division",               "types" : [ "administrative_area_level_1", "political" ]            },            {               "long_name" : "Bangladesh",               "short_name" : "BD",               "types" : [ "country", "political" ]            }         ],         "formatted_address" : "Ramgarh Sitakunda R.f., Bangladesh",         "geometry" : {            "bounds" : {               "northeast" : {                  "lat" : 22.9849274,                  "lng" : 91.7250334               },               "southwest" : {                  "lat" : 22.6874346,                  "lng" : 91.618477               }            },            "location" : {               "lat" : 22.8616571,               "lng" : 91.64692529999999            },            "location_type" : "APPROXIMATE",            "viewport" : {               "northeast" : {                  "lat" : 22.9849274,                  "lng" : 91.7250334               },               "southwest" : {                  "lat" : 22.6874346,                  "lng" : 91.618477               }            }         },         "place_id" : "ChIJw9zB5806UzcRepkvUJB5fjI",         "types" : [ "administrative_area_level_5", "political" ]      },      {         "address_components" : [            {               "long_name" : "Bagan Bazar",               "short_name" : "Bagan Bazar",               "types" : [ "administrative_area_level_4", "political" ]            },            {               "long_name" : "Chittagong District",               "short_name" : "Chittagong District",               "types" : [ "administrative_area_level_2", "political" ]            },            {               "long_name" : "Chittagong Division",               "short_name" : "Chittagong Division",               "types" : [ "administrative_area_level_1", "political" ]            },            {               "long_name" : "Bangladesh",               "short_name" : "BD",               "types" : [ "country", "political" ]            }         ],         "formatted_address" : "Bagan Bazar, Bangladesh",         "geometry" : {            "bounds" : {               "northeast" : {                  "lat" : 22.9892228,                  "lng" : 91.73024239999999               },               "southwest" : {                  "lat" : 22.6852849,                  "lng" : 91.614592               }            },            "location" : {               "lat" : 22.8616571,               "lng" : 91.64692529999999            },            "location_type" : "APPROXIMATE",            "viewport" : {               "northeast" : {                  "lat" : 22.9892228,                  "lng" : 91.73024239999999               },               "southwest" : {                  "lat" : 22.6852849,                  "lng" : 91.614592               }            }         },         "place_id" : "ChIJWwKz9M06UzcR9lPFUMvvsWA",         "types" : [ "administrative_area_level_4", "political" ]      },      {         "address_components" : [            {               "long_name" : "Fatikchhari Upazila",               "short_name" : "Fatikchhari Upazila",               "types" : [ "administrative_area_level_3", "political" ]            },            {               "long_name" : "Chittagong District",               "short_name" : "Chittagong District",               "types" : [ "administrative_area_level_2", "political" ]            },            {               "long_name" : "Chittagong Division",               "short_name" : "Chittagong Division",               "types" : [ "administrative_area_level_1", "political" ]            },            {               "long_name" : "Bangladesh",               "short_name" : "BD",               "types" : [ "country", "political" ]            }         ],         "formatted_address" : "Fatikchhari Upazila, Bangladesh",         "geometry" : {            "bounds" : {               "northeast" : {                  "lat" : 22.9892228,                  "lng" : 91.9437425               },               "southwest" : {                  "lat" : 22.5579642,                  "lng" : 91.614592               }            },            "location" : {               "lat" : 22.7537259,               "lng" : 91.714958            },            "location_type" : "APPROXIMATE",            "viewport" : {               "northeast" : {                  "lat" : 22.9892228,                  "lng" : 91.9437425               },               "southwest" : {                  "lat" : 22.5579642,                  "lng" : 91.614592               }            }         },         "place_id" : "ChIJoxfDG94xUzcRPOsDr2MDows",         "types" : [ "administrative_area_level_3", "political" ]      },      {         "address_components" : [            {               "long_name" : "Chittagong District",               "short_name" : "Chittagong District",               "types" : [ "administrative_area_level_2", "political" ]            },            {               "long_name" : "Chittagong Division",               "short_name" : "Chittagong Division",               "types" : [ "administrative_area_level_1", "political" ]            },            {               "long_name" : "Bangladesh",               "short_name" : "BD",               "types" : [ "country", "political" ]            }         ],         "formatted_address" : "Chittagong District, Bangladesh",         "geometry" : {            "bounds" : {               "northeast" : {                  "lat" : 22.9892228,                  "lng" : 92.2164375               },               "southwest" : {                  "lat" : 21.8572241,                  "lng" : 91.26162409999999               }            },            "location" : {               "lat" : 22.5150105,               "lng" : 91.75388169999999            },            "location_type" : "APPROXIMATE",            "viewport" : {               "northeast" : {                  "lat" : 22.9892228,                  "lng" : 92.2164375               },               "southwest" : {                  "lat" : 21.8572241,                  "lng" : 91.26162409999999               }            }         },         "place_id" : "ChIJUYDu5_vYrDARdfvTbnbAfbk",         "types" : [ "administrative_area_level_2", "political" ]      },      {         "address_components" : [            {               "long_name" : "Chittagong Division",               "short_name" : "Chittagong Division",               "types" : [ "administrative_area_level_1", "political" ]            },            {               "long_name" : "Bangladesh",               "short_name" : "BD",               "types" : [ "country", "political" ]            }         ],         "formatted_address" : "Chittagong Division, Bangladesh",         "geometry" : {            "bounds" : {               "northeast" : {                  "lat" : 24.2687224,                  "lng" : 92.676081               },               "southwest" : {                  "lat" : 20.575048,                  "lng" : 90.52195209999999               }            },            "location" : {               "lat" : 23.1793157,               "lng" : 91.9881527            },            "location_type" : "APPROXIMATE",            "viewport" : {               "northeast" : {                  "lat" : 24.2687224,                  "lng" : 92.676081               },               "southwest" : {                  "lat" : 20.575048,                  "lng" : 90.52195209999999               }            }         },         "place_id" : "ChIJfUw6kK7YrDAR-UHUMwrCIdY",         "types" : [ "administrative_area_level_1", "political" ]      },      {         "address_components" : [            {               "long_name" : "Bangladesh",               "short_name" : "BD",               "types" : [ "country", "political" ]            }         ],         "formatted_address" : "Bangladesh",         "geometry" : {            "bounds" : {               "northeast" : {                  "lat" : 26.633914,                  "lng" : 92.6801153               },               "southwest" : {                  "lat" : 20.3794,                  "lng" : 88.00861410000002               }            },            "location" : {               "lat" : 23.684994,               "lng" : 90.356331            },            "location_type" : "APPROXIMATE",            "viewport" : {               "northeast" : {                  "lat" : 26.633914,                  "lng" : 92.6801153               },               "southwest" : {                  "lat" : 20.3794,                  "lng" : 88.00861410000002               }            }         },         "place_id" : "ChIJp4vhgO2qrTARa_zhxOAoLQ8",         "types" : [ "country", "political" ]      }   ],   "status" : "OK"} 
3 1_4DATE 20170308 T_LAT 22.750 T_LNG  91.797 CRACKER {   "plus_code" : {      "compound_code" : "QQ2W+2R Fatikchhari, Bangladesh",      "global_code" : "7MJHQQ2W+2R"   },   "results" : [      {         "address_components" : [            {               "long_name" : "Dalu",               "short_name" : "Dalu",               "types" : [ "administrative_area_level_5", "political" ]            },            {               "long_name" : "Chittagong District",               "short_name" : "Chittagong District",               "types" : [ "administrative_area_level_2", "political" ]            },            {               "long_name" : "Chittagong Division",               "short_name" : "Chittagong Division",               "types" : [ "administrative_area_level_1", "political" ]            },            {               "long_name" : "Bangladesh",               "short_name" : "BD",               "types" : [ "country", "political" ]            }         ],         "formatted_address" : "Dalu, Bangladesh",         "geometry" : {            "bounds" : {               "northeast" : {                  "lat" : 22.768165,                  "lng" : 91.8114152               },               "southwest" : {                  "lat" : 22.7313999,                  "lng" : 91.7579076               }            },            "location" : {               "lat" : 22.746973,               "lng" : 91.78796849999999            },            "location_type" : "APPROXIMATE",            "viewport" : {               "northeast" : {                  "lat" : 22.768165,                  "lng" : 91.8114152               },               "southwest" : {                  "lat" : 22.7313999,                  "lng" : 91.7579076               }            }         },         "place_id" : "ChIJ5xYyHAMpUzcRtlOT_OkVxRA",         "types" : [ "administrative_area_level_5", "political" ]      },      {         "address_components" : [            {               "long_name" : "Paindanga",               "short_name" : "Paindanga",               "types" : [ "administrative_area_level_4", "political" ]            },            {               "long_name" : "Chittagong District",               "short_name" : "Chittagong District",               "types" : [ "administrative_area_level_2", "political" ]            },            {               "long_name" : "Chittagong Division",               "short_name" : "Chittagong Division",               "types" : [ "administrative_area_level_1", "political" ]            },            {               "long_name" : "Bangladesh",               "short_name" : "BD",               "types" : [ "country", "political" ]            }         ],         "formatted_address" : "Paindanga, Bangladesh",         "geometry" : {            "bounds" : {               "northeast" : {                  "lat" : 22.794318,                  "lng" : 91.84382629999999               },               "southwest" : {                  "lat" : 22.6994474,                  "lng" : 91.7466108               }            },            "location" : {               "lat" : 22.7468643,               "lng" : 91.79771239999999            },            "location_type" : "APPROXIMATE",            "viewport" : {               "northeast" : {                  "lat" : 22.794318,                  "lng" : 91.84382629999999               },               "southwest" : {                  "lat" : 22.6994474,                  "lng" : 91.7466108               }            }         },         "place_id" : "ChIJVSgKgKkpUzcR0fRElo0gbjk",         "types" : [ "administrative_area_level_4", "political" ]      },      {         "address_components" : [            {               "long_name" : "Fatikchhari Upazila",               "short_name" : "Fatikchhari Upazila",               "types" : [ "administrative_area_level_3", "political" ]            },            {               "long_name" : "Chittagong District",               "short_name" : "Chittagong District",               "types" : [ "administrative_area_level_2", "political" ]            },            {               "long_name" : "Chittagong Division",               "short_name" : "Chittagong Division",               "types" : [ "administrative_area_level_1", "political" ]            },            {               "long_name" : "Bangladesh",               "short_name" : "BD",               "types" : [ "country", "political" ]            }         ],         "formatted_address" : "Fatikchhari Upazila, Bangladesh",         "geometry" : {            "bounds" : {               "northeast" : {                  "lat" : 22.9892228,                  "lng" : 91.9437425               },               "southwest" : {                  "lat" : 22.5579642,                  "lng" : 91.614592               }            },            "location" : {               "lat" : 22.7537259,               "lng" : 91.714958            },            "location_type" : "APPROXIMATE",            "viewport" : {               "northeast" : {                  "lat" : 22.9892228,                  "lng" : 91.9437425               },               "southwest" : {                  "lat" : 22.5579642,                  "lng" : 91.614592               }            }         },         "place_id" : "ChIJoxfDG94xUzcRPOsDr2MDows",         "types" : [ "administrative_area_level_3", "political" ]      },      {         "address_components" : [            {               "long_name" : "Chittagong District",               "short_name" : "Chittagong District",               "types" : [ "administrative_area_level_2", "political" ]            },            {               "long_name" : "Chittagong Division",               "short_name" : "Chittagong Division",               "types" : [ "administrative_area_level_1", "political1 1_2DATE 20170308 T_LAT 22.750 T_LNG  91.793 CRACKER {   "plus_code" : {      "compound_code" : "QQ2V+26 Fatikchhari, Bangladesh",      "global_code" : "7MJHQQ2V+26"   },   "results" : [      {         "address_components" : [            {               "long_name" : "Dalu",               "short_name" : "Dalu",               "types" : [ "administrative_area_level_5", "political" ]            },            {               "long_name" : "Chittagong District",               "short_name" : "Chittagong District",               "types" : [ "administrative_area_level_2", "political" ]            },            {               "long_name" : "Chittagong Division",               "short_name" : "Chittagong Division",               "types" : [ "administrative_area_level_1", "political" ]            },            {               "long_name" : "Bangladesh",               "short_name" : "BD",               "types" : [ "country", "political" ]            }         ],         "formatted_address" : "Dalu, Bangladesh",         "geometry" : {            "bounds" : {               "northeast" : {                  "lat" : 22.768165,                  "lng" : 91.8114152               },               "southwest" : {                  "lat" : 22.7313999,                  "lng" : 91.7579076               }            },            "location" : {               "lat" : 22.746973,               "lng" : 91.78796849999999            },            "location_type" : "APPROXIMATE",            "viewport" : {               "northeast" : {                  "lat" : 22.768165,                  "lng" : 91.8114152               },               "southwest" : {                  "lat" : 22.7313999,                  "lng" : 91.7579076               }            }         },         "place_id" : "ChIJ5xYyHAMpUzcRtlOT_OkVxRA",         "types" : [ "administrative_area_level_5", "political" ]      },      {         "address_components" : [            {               "long_name" : "Paindanga",               "short_name" : "Paindanga",               "types" : [ "administrative_area_level_4", "political" ]            },            {               "long_name" : "Chittagong District",               "short_name" : "Chittagong District",               "types" : [ "administrative_area_level_2", "political" ]            },            {               "long_name" : "Chittagong Division",               "short_name" : "Chittagong Division",               "types" : [ "administrative_area_level_1", "political" ]            },            {               "long_name" : "Bangladesh",               "short_name" : "BD",               "types" : [ "country", "political" ]            }         ],         "formatted_address" : "Paindanga, Bangladesh",         "geometry" : {            "bounds" : {               "northeast" : {                  "lat" : 22.794318,                  "lng" : 91.84382629999999               },               "southwest" : {                  "lat" : 22.6994474,                  "lng" : 91.7466108               }            },            "location" : {               "lat" : 22.7468643,               "lng" : 91.79771239999999            },            "location_type" : "APPROXIMATE",            "viewport" : {               "northeast" : {                  "lat" : 22.794318,                  "lng" : 91.84382629999999               },               "southwest" : {                  "lat" : 22.6994474,                  "lng" : 91.7466108               }            }         },         "place_id" : "ChIJVSgKgKkpUzcR0fRElo0gbjk",         "types" : [ "administrative_area_level_4", "political" ]      },      {         "address_components" : [            {               "long_name" : "Fatikchhari Upazila",               "short_name" : "Fatikchhari Upazila",               "types" : [ "administrative_area_level_3", "political" ]            },            {               "long_name" : "Chittagong District",               "short_name" : "Chittagong District",               "types" : [ "administrative_area_level_2", "political" ]            },            {               "long_name" : "Chittagong Division",               "short_name" : "Chittagong Division",               "types" : [ "administrative_area_level_1", "political" ]            },            {               "long_name" : "Bangladesh",               "short_name" : "BD",               "types" : [ "country", "political" ]            }         ],         "formatted_address" : "Fatikchhari Upazila, Bangladesh",         "geometry" : {            "bounds" : {               "northeast" : {                  "lat" : 22.9892228,                  "lng" : 91.9437425               },               "southwest" : {                  "lat" : 22.5579642,                  "lng" : 91.614592               }            },            "location" : {               "lat" : 22.7537259,               "lng" : 91.714958            },            "location_type" : "APPROXIMATE",            "viewport" : {               "northeast" : {                  "lat" : 22.9892228,                  "lng" : 91.9437425               },               "southwest" : {                  "lat" : 22.5579642,                  "lng" : 91.614592               }            }         },         "place_id" : "ChIJoxfDG94xUzcRPOsDr2MDows",         "types" : [ "administrative_area_level_3", "political" ]      },      {         "address_components" : [            {               "long_name" : "Chittagong District",               "short_name" : "Chittagong District",               "types" : [ "administrative_area_level_2", "political" ]            },            {               "long_name" : "Chittagong Division",               "short_name" : "Chittagong Division",               "types" : [ "administrative_area_level_1", "political" ]            },            {               "long_name" : "Bangladesh",               "short_name" : "BD",               "types" : [ "country", "political" ]            }         ],         "formatted_address" : "Chittagong District, Bangladesh",         "geometry" : {            "bounds" : {               "northeast" : {                  "lat" : 22.9892228,                  "lng" : 92.2164375               },               "southwest" : {                  "lat" : 21.8572241,                  "lng" : 91.26162409999999               }            },            "location" : {               "lat" : 22.5150105,               "lng" : 91.75388169999999            },            "location_type" : "APPROXIMATE",            "viewport" : {               "northeast" : {                  "lat" : 22.9892228,                  "lng" : 92.2164375               },               "southwest" : {                  "lat" : 21.8572241,                  "lng" : 91.26162409999999               }            }         },         "place_id" : "ChIJUYDu5_vYrDARdfvTbnbAfbk",         "types" : [ "administrative_area_level_2", "political" ]      },      {         "address_components" : [            {               "long_name" : "Chittagong Division",               "short_name" : "Chittagong Division",               "types" : [ "administrative_area_level_1", "political" ]            },            {               "long_name" : "Bangladesh",               "short_name" : "BD",               "types" : [ "country", "political" ]            }         ],         "formatted_address" : "Chittagong Division, Bangladesh",         "geometry" : {            "bounds" : {               "northeast" : {                  "lat" : 24.2687224,                  "lng" : 92.676081               },               "southwest" : {                  "lat" : 20.575048,                  "lng" : 90.52195209999999               }            },            "location" : {               "lat" : 23.1793157,               "lng" : 91.9881527            },            "location_type" : "APPROXIMATE",            "viewport" : {               "northeast" : {                  "lat" : 24.2687224,                  "lng" : 92.676081               },               "southwest" : {                  "lat" : 20.575048,                  "lng" : 90.52195209999999               }            }         },         "place_id" : "ChIJfUw6kK7YrDAR-UHUMwrCIdY",         "types" : [ "administrative_area_level_1", "political" ]      },      {         "address_components" : [            {               "long_name" : "Bangladesh",               "short_name" : "BD",               "types" : [ "country", "political" ]            }         ],         "formatted_address" : "Bangladesh",         "geometry" : {            "bounds" : {               "northeast" : {                  "lat" : 26.633914,                  "lng" : 92.6801153               },               "southwest" : {                  "lat" : 20.3794,                  "lng" : 88.00861410000002               }            },            "location" : {               "lat" : 23.684994,               "lng" : 90.356331            },            "location_type" : "APPROXIMATE",            "viewport" : {               "northeast" : {                  "lat" : 26.633914,                  "lng" : 92.6801153               },               "southwest" : {                  "lat" : 20.3794,                  "lng" : 88.00861410000002               }            }         },         "place_id" : "ChIJp4vhgO2qrTARa_zhxOAoLQ8",         "types" : [ "country", "political" ]      }   ],   "status" : "OK"} 
2 1_3DATE 20170308 T_LAT 22.757 T_LNG  91.631 CRACKER {   "plus_code" : {      "compound_code" : "QJ4J+R9 Mirsharai, Bangladesh",      "global_code" : "7MJHQJ4J+R9"   },   "results" : [      {         "address_components" : [            {               "long_name" : "Ramgarh Sitakunda R.f.",               "short_name" : "Ramgarh Sitakunda R.f.",               "types" : [ "administrative_area_level_5", "political" ]            },            {               "long_name" : "Chittagong District",               "short_name" : "Chittagong District",               "types" : [ "administrative_area_level_2", "political" ]            },            {               "long_name" : "Chittagong Division",               "short_name" : "Chittagong Division",               "types" : [ "administrative_area_level_1", "political" ]            },            {               "long_name" : "Bangladesh",               "short_name" : "BD",               "types" : [ "country", "political" ]            }         ],         "formatted_address" : "Ramgarh Sitakunda R.f., Bangladesh",         "geometry" : {            "bounds" : {               "northeast" : {                  "lat" : 22.9849274,                  "lng" : 91.7250334               },               "southwest" : {                  "lat" : 22.6874346,                  "lng" : 91.618477               }            },            "location" : {               "lat" : 22.8616571,               "lng" : 91.64692529999999            },            "location_type" : "APPROXIMATE",            "viewport" : {               "northeast" : {                  "lat" : 22.9849274,                  "lng" : 91.7250334               },               "southwest" : {                  "lat" : 22.6874346,                  "lng" : 91.618477               }            }         },         "place_id" : "ChIJw9zB5806UzcRepkvUJB5fjI",         "types" : [ "administrative_area_level_5", "political" ]      },      {         "address_components" : [            {               "long_name" : "Bagan Bazar",               "short_name" : "Bagan Bazar",               "types" : [ "administrative_area_level_4", "political" ]            },            {               "long_name" : "Chittagong District",               "short_name" : "Chittagong District",               "types" : [ "administrative_area_level_2", "political" ]            },            {               "long_name" : "Chittagong Division",               "short_name" : "Chittagong Division",               "types" : [ "administrative_area_level_1", "political" ]            },            {               "long_name" : "Bangladesh",               "short_name" : "BD",               "types" : [ "country", "political" ]            }         ],         "formatted_address" : "Bagan Bazar, Bangladesh",         "geometry" : {            "bounds" : {               "northeast" : {                  "lat" : 22.9892228,                  "lng" : 91.73024239999999               },               "southwest" : {                  "lat" : 22.6852849,                  "lng" : 91.614592               }            },            "location" : {               "lat" : 22.8616571,               "lng" : 91.64692529999999            },            "location_type" : "APPROXIMATE",            "viewport" : {               "northeast" : {                  "lat" : 22.9892228,                  "lng" : 91.73024239999999               },               "southwest" : {                  "lat" : 22.6852849,                  "lng" : 91.614592               }            }         },         "place_id" : "ChIJWwKz9M06UzcR9lPFUMvvsWA",         "types" : [ "administrative_area_level_4", "political" ]      },      {         "address_components" : [            {               "long_name" : "Fatikchhari Upazila",               "short_name" : "Fatikchhari Upazila",               "types" : [ "administrative_area_level_3", "political" ]            },            {               "long_name" : "Chittagong District",               "short_name" : "Chittagong District",               "types" : [ "administrative_area_level_2", "political" ]            },            {               "long_name" : "Chittagong Division",               "short_name" : "Chittagong Division",               "types" : [ "administrative_area_level_1", "political" ]            },            {               "long_name" : "Bangladesh",               "short_name" : "BD",               "types" : [ "country", "political" ]            }         ],         "formatted_address" : "Fatikchhari Upazila, Bangladesh",         "geometry" : {            "bounds" : {               "northeast" : {                  "lat" : 22.9892228,                  "lng" : 91.9437425               },               "southwest" : {                  "lat" : 22.5579642,                  "lng" : 91.614592               }            },            "location" : {               "lat" : 22.7537259,               "lng" : 91.714958            },            "location_type" : "APPROXIMATE",            "viewport" : {               "northeast" : {                  "lat" : 22.9892228,                  "lng" : 91.9437425               },               "southwest" : {                  "lat" : 22.5579642,                  "lng" : 91.614592               }            }         },         "place_id" : "ChIJoxfDG94xUzcRPOsDr2MDows",         "types" : [ "administrative_area_level_3", "political" ]      },      {         "address_components" : [            {               "long_name" : "Chittagong District",               "short_name" : "Chittagong District",               "types" : [ "administrative_area_level_2", "political" ]            },            {               "long_name" : "Chittagong Division",               "short_name" : "Chittagong Division",               "types" : [ "administrative_area_level_1", "political" ]            },            {               "long_name" : "Bangladesh",               "short_name" : "BD",               "types" : [ "country", "political" ]            }         ],         "formatted_address" : "Chittagong District, Bangladesh",         "geometry" : {            "bounds" : {               "northeast" : {                  "lat" : 22.9892228,                  "lng" : 92.2164375               },               "southwest" : {                  "lat" : 21.8572241,                  "lng" : 91.26162409999999               }            },            "location" : {               "lat" : 22.5150105,               "lng" : 91.75388169999999            },            "location_type" : "APPROXIMATE",            "viewport" : {               "northeast" : {                  "lat" : 22.9892228,                  "lng" : 92.2164375               },               "southwest" : {                  "lat" : 21.8572241,                  "lng" : 91.26162409999999               }            }         },         "place_id" : "ChIJUYDu5_vYrDARdfvTbnbAfbk",         "types" : [ "administrative_area_level_2", "political" ]      },      {         "address_components" : [            {               "long_name" : "Chittagong Division",               "short_name" : "Chittagong Division",               "types" : [ "administrative_area_level_1", "political" ]            },            {               "long_name" : "Bangladesh",               "short_name" : "BD",               "types" : [ "country", "political" ]            }         ],         "formatted_address" : "Chittagong Division, Bangladesh",         "geometry" : {            "bounds" : {               "northeast" : {                  "lat" : 24.2687224,                  "lng" : 92.676081               },               "southwest" : {                  "lat" : 20.575048,                  "lng" : 90.52195209999999               }            },            "location" : {               "lat" : 23.1793157,               "lng" : 91.9881527            },            "location_type" : "APPROXIMATE",            "viewport" : {               "northeast" : {                  "lat" : 24.2687224,                  "lng" : 92.676081               },               "southwest" : {                  "lat" : 20.575048,                  "lng" : 90.52195209999999               }            }         },         "place_id" : "ChIJfUw6kK7YrDAR-UHUMwrCIdY",         "types" : [ "administrative_area_level_1", "political" ]      },      {         "address_components" : [            {               "long_name" : "Bangladesh",               "short_name" : "BD",               "types" : [ "country", "political" ]            }         ],         "formatted_address" : "Bangladesh",         "geometry" : {            "bounds" : {               "northeast" : {                  "lat" : 26.633914,                  "lng" : 92.6801153               },               "southwest" : {                  "lat" : 20.3794,                  "lng" : 88.00861410000002               }            },            "location" : {               "lat" : 23.684994,               "lng" : 90.356331            },            "location_type" : "APPROXIMATE",            "viewport" : {               "northeast" : {                  "lat" : 26.633914,                  "lng" : 92.6801153               },               "southwest" : {                  "lat" : 20.3794,                  "lng" : 88.00861410000002               }            }         },         "place_id" : "ChIJp4vhgO2qrTARa_zhxOAoLQ8",         "types" : [ "country", "political" ]      }   ],   "status" : "OK"} 
3 1_4DATE 20170308 T_LAT 22.750 T_LNG  91.797 CRACKER {   "plus_code" : {      "compound_code" : "QQ2W+2R Fatikchhari, Bangladesh",      "global_code" : "7MJHQQ2W+2R"   },   "results" : [      {         "address_components" : [            {               "long_name" : "Dalu",               "short_name" : "Dalu",               "types" : [ "administrative_area_level_5", "political" ]            },            {               "long_name" : "Chittagong District",               "short_name" : "Chittagong District",               "types" : [ "administrative_area_level_2", "political" ]            },            {               "long_name" : "Chittagong Division",               "short_name" : "Chittagong Division",               "types" : [ "administrative_area_level_1", "political" ]            },            {               "long_name" : "Bangladesh",               "short_name" : "BD",               "types" : [ "country", "political" ]            }         ],         "formatted_address" : "Dalu, Bangladesh",         "geometry" : {            "bounds" : {               "northeast" : {                  "lat" : 22.768165,                  "lng" : 91.8114152               },               "southwest" : {                  "lat" : 22.7313999,                  "lng" : 91.7579076               }            },            "location" : {               "lat" : 22.746973,               "lng" : 91.78796849999999            },            "location_type" : "APPROXIMATE",            "viewport" : {               "northeast" : {                  "lat" : 22.768165,                  "lng" : 91.8114152               },               "southwest" : {                  "lat" : 22.7313999,                  "lng" : 91.7579076               }            }         },         "place_id" : "ChIJ5xYyHAMpUzcRtlOT_OkVxRA",         "types" : [ "administrative_area_level_5", "political" ]      },      {         "address_components" : [            {               "long_name" : "Paindanga",               "short_name" : "Paindanga",               "types" : [ "administrative_area_level_4", "political" ]            },            {               "long_name" : "Chittagong District",               "short_name" : "Chittagong District",               "types" : [ "administrative_area_level_2", "political" ]            },            {               "long_name" : "Chittagong Division",               "short_name" : "Chittagong Division",               "types" : [ "administrative_area_level_1", "political" ]            },            {               "long_name" : "Bangladesh",               "short_name" : "BD",               "types" : [ "country", "political" ]            }         ],         "formatted_address" : "Paindanga, Bangladesh",         "geometry" : {            "bounds" : {               "northeast" : {                  "lat" : 22.794318,                  "lng" : 91.84382629999999               },               "southwest" : {                  "lat" : 22.6994474,                  "lng" : 91.7466108               }            },            "location" : {               "lat" : 22.7468643,               "lng" : 91.79771239999999            },            "location_type" : "APPROXIMATE",            "viewport" : {               "northeast" : {                  "lat" : 22.794318,                  "lng" : 91.84382629999999               },               "southwest" : {                  "lat" : 22.6994474,                  "lng" : 91.7466108               }            }         },         "place_id" : "ChIJVSgKgKkpUzcR0fRElo0gbjk",         "types" : [ "administrative_area_level_4", "political" ]      },      {         "address_components" : [            {               "long_name" : "Fatikchhari Upazila",               "short_name" : "Fatikchhari Upazila",               "types" : [ "administrative_area_level_3", "political" ]            },            {               "long_name" : "Chittagong District",               "short_name" : "Chittagong District",               "types" : [ "administrative_area_level_2", "political" ]            },            {               "long_name" : "Chittagong Division",               "short_name" : "Chittagong Division",               "types" : [ "administrative_area_level_1", "political" ]            },            {               "long_name" : "Bangladesh",               "short_name" : "BD",               "types" : [ "country", "political" ]            }         ],         "formatted_address" : "Fatikchhari Upazila, Bangladesh",         "geometry" : {            "bounds" : {               "northeast" : {                  "lat" : 22.9892228,                  "lng" : 91.9437425               },               "southwest" : {                  "lat" : 22.5579642,                  "lng" : 91.614592               }            },            "location" : {               "lat" : 22.7537259,               "lng" : 91.714958            },            "location_type" : "APPROXIMATE",            "viewport" : {               "northeast" : {                  "lat" : 22.9892228,                  "lng" : 91.9437425               },               "southwest" : {                  "lat" : 22.5579642,                  "lng" : 91.614592               }            }         },         "place_id" : "ChIJoxfDG94xUzcRPOsDr2MDows",         "types" : [ "administrative_area_level_3", "political" ]      },      {         "address_components" : [            {               "long_name" : "Chittagong District",               "short_name" : "Chittagong District",               "types" : [ "administrative_area_level_2", "political" ]            },            {               "long_name" : "Chittagong Division",               "short_name" : "Chittagong Division",               "types" : [ "administrative_area_level_1", "political